[
{"cattoID": "59201",
"denominazione": "Chiesa della Confraternita del Gonfalone <Piasco>",
"parr_ente": "BE5",
"tipologia": "chiesa",
"qualificazione": "sussidiaria",
"diocesi": "Saluzzo",
"comune": "Piasco",
"lat": "44.570083",
"lng": "7.457731"
},
{"cattoID": "44275",
"denominazione": "Chiesa di Sant'Antonio <Sant'Antonio, Piasco>",
"parr_ente": "BE4",
"tipologia": "cappella",
"qualificazione": "sussidiaria",
"diocesi": "Saluzzo",
"comune": "Piasco(Sant'Antonio)",
"lat": "44.560806",
"lng": "7.448953"
},
{"cattoID": "44276",
"denominazione": "Cappella della Madonna della Neve <Serravalle, Piasco>",
"parr_ente": "BE4",
"tipologia": "cappella",
"qualificazione": "sussidiaria",
"diocesi": "Saluzzo",
"comune": "Piasco(Serravalle)",
"lat": "44.567625",
"lng": "7.4261"
},
{"cattoID": "44277",
"denominazione": "Cappella di San Defendente <Serravalle, Piasco>",
"parr_ente": "BE4",
"tipologia": "cappella",
"qualificazione": "sussidiaria",
"diocesi": "Saluzzo",
"comune": "Piasco(Serravalle)",
"lat": "44.566856",
"lng": "7.429061"
},
{"cattoID": "59200",
"denominazione": "Chiesa di Sant'Antonio <Sant'Antonio, Piasco>",
"parr_ente": "BE4",
"tipologia": "chiesa",
"qualificazione": "parrocchiale",
"diocesi": "Saluzzo",
"comune": "Piasco(Sant'Antonio)",
"lat": "44.560778",
"lng": "7.447408"
},
{"cattoID": "44274",
"denominazione": "Cappella di San Bernardo <Piasco>",
"parr_ente": "BE5",
"tipologia": "cappella",
"qualificazione": "sussidiaria",
"diocesi": "Saluzzo",
"comune": "Piasco",
"lat": "44.583731",
"lng": "7.428078"
},
{"cattoID": "59202",
"denominazione": "Chiesa di San Giovanni Battista <Piasco>",
"parr_ente": "BE5",
"tipologia": "chiesa",
"qualificazione": "parrocchiale",
"diocesi": "Saluzzo",
"comune": "Piasco",
"lat": "44.569014",
"lng": "7.457667"
},
{"cattoID": "44265",
"denominazione": "Cappella della Madonnina <Piasco>",
"parr_ente": "BE5",
"tipologia": "cappella",
"qualificazione": "sussidiaria",
"diocesi": "Saluzzo",
"comune": "Piasco",
"lat": "44.569611",
"lng": "7.459236"
},
{"cattoID": "44270",
"denominazione": "Cappella di Sant'Anna <Piasco>",
"parr_ente": "BE5",
"tipologia": "cappella",
"qualificazione": "sussidiaria",
"diocesi": "Saluzzo",
"comune": "Piasco",
"lat": "44.567031",
"lng": "7.462719"
},
{"cattoID": "44271",
"denominazione": "Cappella di Santa Croce <Piasco>",
"parr_ente": "BE5",
"tipologia": "cappella",
"qualificazione": "sussidiaria",
"diocesi": "Saluzzo",
"comune": "Piasco",
"lat": "44.576139",
"lng": "7.463281"
},
{"cattoID": "44272",
"denominazione": "Cappella di Santa Brigida <Piasco>",
"parr_ente": "BE5",
"tipologia": "cappella",
"qualificazione": "sussidiaria",
"diocesi": "Saluzzo",
"comune": "Piasco(S. Brigida)",
"lat": "44.578417",
"lng": "7.458217"
},
{"cattoID": "59203",
"denominazione": "Chiesa della Madonna del Carmine <Piasco>",
"parr_ente": "BE5",
"tipologia": "chiesa",
"qualificazione": "sussidiaria",
"diocesi": "Saluzzo",
"comune": "Piasco",
"lat": "44.565972",
"lng": "7.455669"
}
]
